<?xml version="1.0" encoding="UTF-8"?>
<gpx
  version="1.0"
  creator="GPSBabel - http://www.gpsbabel.org"
  xmlns:xsi="http://www.w3.org/2001/XMLSchema-instance"
  xmlns="http://www.topografix.com/GPX/1/0"
  xsi:schemaLocation="http://www.topografix.com/GPX/1/0 http://www.topografix.com/GPX/1/0/gpx.xsd">
<time>2009-05-21T01:53:45Z</time>
<bounds minlat="48.506989742" minlon="-122.740570001" maxlat="48.611650364" maxlon="-122.623370473"/>
<wpt lat="48.506989742" lon="-122.676989328">
  <time>2006-01-22T21:22:00Z</time>
  <name>ANCFRY</name>
  <cmt>Strait of Georgia</cmt>
  <desc>Strait of Georgia</desc>
  <sym>Waypoint</sym>
</wpt>
<wpt lat="48.591789970" lon="-122.683730327">
  <time>2006-01-22T21:16:58Z</time>
  <name>CYCONE1</name>
  <cmt>CYCONE1</cmt>
  <desc>CYCONE1</desc>
  <sym>Waypoint</sym>
</wpt>
<wpt lat="48.602160337" lon="-122.725999631">
  <time>2006-01-22T21:18:02Z</time>
  <name>CYEAGCLF</name>
  <cmt>CYEAGCLF</cmt>
  <desc>CYEAGCLF</desc>
  <sym>Waypoint</sym>
</wpt>
<wpt lat="48.589660081" lon="-122.691180423">
  <time>2006-01-22T21:18:18Z</time>
  <name>CYEAGL2</name>
  <cmt>Strait of Georgia</cmt>
  <desc>Strait of Georgia</desc>
  <sym>Waypoint</sym>
</wpt>
<wpt lat="48.608789692" lon="-122.713439609">
  <time>2006-01-22T21:18:34Z</time>
  <name>CYNEND</name>
  <cmt>Strait of Georgia</cmt>
  <desc>Strait of Georgia</desc>
  <sym>Waypoint</sym>
</wpt>
<wpt lat="48.603680263" lon="-122.704359843">
  <time>2006-01-22T21:18:49Z</time>
  <name>CYPELBCH</name>
  <cmt>Strait of Georgia</cmt>
  <desc>Strait of Georgia</desc>
  <sym>Waypoint</sym>
</wpt>
<wpt lat="48.566180107" lon="-122.668029766">
  <time>2006-01-22T21:19:05Z</time>
  <name>CYPHEAD</name>
  <cmt>Strait of Georgia</cmt>
  <desc>Strait of Georgia</desc>
  <sym>Waypoint</sym>
</wpt>
<wpt lat="48.540570254" lon="-122.722410114">
  <time>2006-01-22T21:19:20Z</time>
  <name>CYREEFPT</name>
  <cmt>Strait of Georgia</cmt>
  <desc>Strait of Georgia</desc>
  <sym>Waypoint</sym>
</wpt>
<wpt lat="48.555509651" lon="-122.689669959">
  <time>2006-01-22T21:19:35Z</time>
  <name>CYSECHRB</name>
  <cmt>Strait of Georgia</cmt>
  <desc>Strait of Georgia</desc>
  <sym>Waypoint</sym>
</wpt>
<wpt lat="48.543240007" lon="-122.686189846">
  <time>2006-01-22T21:19:49Z</time>
  <name>CYSOEND</name>
  <cmt>Strait of Georgia</cmt>
  <desc>Strait of Georgia</desc>
  <sym>Waypoint</sym>
</wpt>
<wpt lat="48.560209636" lon="-122.735960063">
  <time>2006-01-22T21:20:03Z</time>
  <name>CYSTRWIS</name>
  <cmt>Strait of Georgia</cmt>
  <desc>Strait of Georgia</desc>
  <sym>Waypoint</sym>
</wpt>
<wpt lat="48.585010315" lon="-122.740570001">
  <time>2006-01-22T21:20:15Z</time>
  <name>CYTIDPT</name>
  <cmt>Strait of Georgia</cmt>
  <desc>Strait of Georgia</desc>
  <sym>Waypoint</sym>
</wpt>
<wpt lat="48.611650364" lon="-122.714109901">
  <time>2006-01-22T21:20:28Z</time>
  <name>CYTOWIS</name>
  <cmt>Strait of Georgia</cmt>
  <desc>Strait of Georgia</desc>
  <sym>Waypoint</sym>
</wpt>
<wpt lat="48.518080402" lon="-122.623370473">
  <time>2006-01-22T21:21:16Z</time>
  <name>GUFERRY</name>
  <cmt>GUFERRY</cmt>
  <desc>GUFERRY</desc>
  <sym>Waypoint</sym>
</wpt>
<wpt lat="48.570900238" lon="-122.651509472">
  <time>2006-01-22T21:21:33Z</time>
  <name>GUINDVIL</name>
  <cmt>Strait of Georgia</cmt>
  <desc>Strait of Georgia</desc>
  <sym>Waypoint</sym>
</wpt>
<wpt lat="48.527959773" lon="-122.648250140">
  <time>2006-01-22T21:21:46Z</time>
  <name>GUKELPT</name>
  <cmt>Strait of Georgia</cmt>
  <desc>Strait of Georgia</desc>
  <sym>Waypoint</sym>
</wpt>
</gpx>
