<?xml version="1.0" encoding="UTF-8"?>
<gpx
  version="1.0"
  creator="GPSBabel - http://www.gpsbabel.org"
  xmlns:xsi="http://www.w3.org/2001/XMLSchema-instance"
  xmlns="http://www.topografix.com/GPX/1/0"
  xsi:schemaLocation="http://www.topografix.com/GPX/1/0 http://www.topografix.com/GPX/1/0/gpx.xsd">
<time>2009-04-10T16:41:53Z</time>
<bounds minlat="52.072348712" minlon="-119.828680183" maxlat="52.260708197" maxlon="-119.614254603"/>
<wpt lat="52.101301211" lon="-119.744557803">
  <time>1989-12-31T00:00:00Z</time>
  <name>Authur</name>
  <cmt>Campsite</cmt>
  <desc>Campsite</desc>
  <sym>Campground</sym>
</wpt>
<wpt lat="52.124971872" lon="-119.741417538">
  <time>1989-12-31T00:00:00Z</time>
  <name>Birch Beach</name>
  <cmt>Campsite</cmt>
  <desc>Campsite</desc>
  <sym>Campground</sym>
</wpt>
<wpt lat="52.129553858" lon="-119.762487235">
  <time>1989-12-31T00:00:00Z</time>
  <name>Cottowood</name>
  <cmt>Campsite</cmt>
  <desc>Campsite</desc>
  <sym>Campground</sym>
</wpt>
<wpt lat="52.115944520" lon="-119.823708227">
  <time>1989-12-31T00:00:00Z</time>
  <name>Diamond Lagoons</name>
  <cmt>Campsite</cmt>
  <desc>Campsite</desc>
  <sym>Campground</sym>
</wpt>
<wpt lat="52.232680087" lon="-119.677647602">
  <time>1989-12-31T00:00:00Z</time>
  <name>Eagle Point</name>
  <cmt>Campsite</cmt>
  <desc>Campsite</desc>
  <sym>Campground</sym>
</wpt>
<wpt lat="52.135348404" lon="-119.821659225">
  <time>1989-12-31T00:00:00Z</time>
  <name>File Creek</name>
  <cmt>Campsite</cmt>
  <desc>Campsite</desc>
  <sym>Campground</sym>
</wpt>
<wpt lat="52.127622887" lon="-119.828680183">
  <time>1989-12-31T00:00:00Z</time>
  <name>Kostal</name>
  <cmt>Campsite</cmt>
  <desc>Campsite</desc>
  <sym>Campground</sym>
</wpt>
<wpt lat="52.123086038" lon="-119.757218695">
  <time>1989-12-31T00:00:00Z</time>
  <name>Leo Island</name>
  <cmt>Campsite</cmt>
  <desc>Campsite</desc>
  <sym>Campground</sym>
</wpt>
<wpt lat="52.192298064" lon="-119.706382080">
  <time>1989-12-31T00:00:00Z</time>
  <name>Little Anderson</name>
  <cmt>Campsite</cmt>
  <desc>Campsite</desc>
  <sym>Campground</sym>
</wpt>
<wpt lat="52.192795377" lon="-119.672076361">
  <time>1989-12-31T00:00:00Z</time>
  <name>Moonlite By</name>
  <cmt>Campsite</cmt>
  <desc>Campsite</desc>
  <sym>Campground</sym>
</wpt>
<wpt lat="52.260708197" lon="-119.654185846">
  <time>1989-12-31T00:00:00Z</time>
  <name>Murtle Beach</name>
  <cmt>Campsite</cmt>
  <desc>Campsite</desc>
  <sym>Campground</sym>
</wpt>
<wpt lat="52.074042255" lon="-119.614254603">
  <time>1989-12-31T00:00:00Z</time>
  <name>Murtle Lagoon N</name>
  <cmt>Campsite</cmt>
  <desc>Campsite</desc>
  <sym>Campground</sym>
</wpt>
<wpt lat="52.072348712" lon="-119.614949524">
  <time>1989-12-31T00:00:00Z</time>
  <name>Murtle Lagoon S</name>
  <cmt>Campsite</cmt>
  <desc>Campsite</desc>
  <sym>Campground</sym>
</wpt>
<wpt lat="52.091559084" lon="-119.659057376">
  <time>1989-12-31T00:00:00Z</time>
  <name>Sandy Point</name>
  <cmt>Campsite</cmt>
  <desc>Campsite</desc>
  <sym>Campground</sym>
</wpt>
<wpt lat="52.135118678" lon="-119.789642518">
  <time>1989-12-31T00:00:00Z</time>
  <name>Smoker Island</name>
  <cmt>Campsite</cmt>
  <desc>Campsite</desc>
  <sym>Campground</sym>
</wpt>
<wpt lat="52.135764929" lon="-119.617762016">
  <time>1989-12-31T00:00:00Z</time>
  <name>Strait Creek</name>
  <cmt>Campsite</cmt>
  <desc>Campsite</desc>
  <sym>Campground</sym>
</wpt>
<wpt lat="52.148777784" lon="-119.662254985">
  <time>1989-12-31T00:00:00Z</time>
  <name>Sunshine Cove</name>
  <cmt>Campsite</cmt>
  <desc>Campsite</desc>
  <sym>Campground</sym>
</wpt>
<wpt lat="52.122232232" lon="-119.780122037">
  <time>1989-12-31T00:00:00Z</time>
  <name>Tropicana</name>
  <cmt>Campsite</cmt>
  <desc>Campsite</desc>
  <sym>Campground</sym>
</wpt>
<wpt lat="52.164143983" lon="-119.691497746">
  <time>1989-12-31T00:00:00Z</time>
  <name>Wavy View</name>
  <cmt>Campsite</cmt>
  <desc>Campsite</desc>
  <sym>Campground</sym>
</wpt>
</gpx>
