<?xml version="1.0" encoding="UTF-8"?>
<gpx
  version="1.0"
  creator="GPSBabel - http://www.gpsbabel.org"
  xmlns:xsi="http://www.w3.org/2001/XMLSchema-instance"
  xmlns="http://www.topografix.com/GPX/1/0"
  xsi:schemaLocation="http://www.topografix.com/GPX/1/0 http://www.topografix.com/GPX/1/0/gpx.xsd">
<time>2009-05-21T02:58:02Z</time>
<bounds minlat="46.784461900" minlon="-121.759327278" maxlat="46.851164844" maxlon="-121.723944374"/>
<wpt lat="46.833650068" lon="-121.731196541">
  <ele>383.000092</ele>
  <time>2003-12-16T22:47:00Z</time>
  <name>CAMPMUIR</name>
  <cmt>CAMPMUIR</cmt>
  <desc>CAMPMUIR</desc>
  <sym>City (Small)</sym>
</wpt>
<wpt lat="46.851164844" lon="-121.759327278">
  <ele>383.000092</ele>
  <time>2003-12-16T22:47:00Z</time>
  <name>COLUMBIACREST</name>
  <cmt>COLUMBIACREST</cmt>
  <desc>COLUMBIACREST</desc>
  <sym>City (Small)</sym>
</wpt>
<wpt lat="46.849205378" lon="-121.754571654">
  <ele>383.000092</ele>
  <time>2003-12-16T22:47:00Z</time>
  <name>CRATERRIM</name>
  <cmt>CRATERRIM</cmt>
  <desc>CRATERRIM</desc>
  <sym>City (Small)</sym>
</wpt>
<wpt lat="46.799668099" lon="-121.734354578">
  <ele>383.000092</ele>
  <time>2004-08-16T22:47:00Z</time>
  <name>GLACIERVISTA</name>
  <cmt>GLACIERVISTA</cmt>
  <desc>GLACIERVISTA</desc>
  <sym>City (Small)</sym>
</wpt>
<wpt lat="46.818720795" lon="-121.723944374">
  <ele>383.000092</ele>
  <time>2004-08-16T22:47:00Z</time>
  <name>MUIRSNOWFIEL2</name>
  <cmt>MUIRSNOWFIEL2</cmt>
  <desc>MUIRSNOWFIEL2</desc>
  <sym>City (Small)</sym>
</wpt>
<wpt lat="46.827047472" lon="-121.728205192">
  <ele>383.000092</ele>
  <time>2004-08-16T22:47:00Z</time>
  <name>MUIRSNOWFIELD</name>
  <cmt>MUIRSNOWFIELD</cmt>
  <desc>MUIRSNOWFIELD</desc>
  <sym>City (Small)</sym>
</wpt>
<wpt lat="46.840182808" lon="-121.727895230">
  <ele>383.000092</ele>
  <time>2003-12-16T22:47:00Z</time>
  <name>ONRIDGE</name>
  <cmt>ONRIDGE</cmt>
  <desc>ONRIDGE</desc>
  <sym>City (Small)</sym>
</wpt>
<wpt lat="46.784461900" lon="-121.734580048">
  <ele>383.000000</ele>
  <time>2004-08-16T22:47:00Z</time>
  <name>PARADISE</name>
  <cmt>PARADISE</cmt>
  <desc>PARADISE</desc>
  <sym>Square, Green</sym>
</wpt>
<wpt lat="46.807483526" lon="-121.724996583">
  <ele>383.000092</ele>
  <time>2004-08-16T22:47:00Z</time>
  <name>PEBBLECRKXING</name>
  <cmt>PEBBLECRKXING</cmt>
  <desc>PEBBLECRKXING</desc>
  <sym>City (Small)</sym>
</wpt>
<wpt lat="46.847523814" lon="-121.740707144">
  <ele>383.000092</ele>
  <time>2003-12-16T22:47:00Z</time>
  <name>TOPDISCLEAVER</name>
  <cmt>TOPDISCLEAVER</cmt>
  <desc>TOPDISCLEAVER</desc>
  <sym>City (Small)</sym>
</wpt>
<wpt lat="46.803556993" lon="-121.727972624">
  <ele>383.000092</ele>
  <time>2004-08-16T22:47:00Z</time>
  <name>TRAILJUNCTION</name>
  <cmt>TRAILJUNCTION</cmt>
  <desc>TRAILJUNCTION</desc>
  <sym>City (Small)</sym>
</wpt>
</gpx>
