<?xml version="1.0" encoding="UTF-8"?>
<gpx
  version="1.0"
  creator="GPSBabel - http://www.gpsbabel.org"
  xmlns:xsi="http://www.w3.org/2001/XMLSchema-instance"
  xmlns="http://www.topografix.com/GPX/1/0"
  xsi:schemaLocation="http://www.topografix.com/GPX/1/0 http://www.topografix.com/GPX/1/0/gpx.xsd">
<time>2009-06-02T22:57:46Z</time>
<bounds minlat="50.010029915" minlon="-124.849767655" maxlat="50.159062601" maxlon="-124.678708454"/>
<wpt lat="50.010029915" lon="-124.729920638">
  <time>2002-09-19T12:40:53Z</time>
  <name>001</name>
  <cmt>11-SEP-02 17:52</cmt>
  <desc>11-SEP-02 17:52</desc>
  <sym>Anchor</sym>
</wpt>
<wpt lat="50.012315930" lon="-124.814845831">
  <time>2002-09-19T12:49:46Z</time>
  <name>COPELAND</name>
  <cmt>COPELAND</cmt>
  <desc>COPELAND</desc>
  <sym>Airport</sym>
</wpt>
<wpt lat="50.029818639" lon="-124.827812767">
  <time>2002-09-19T12:55:08Z</time>
  <name>COPELAND2</name>
  <cmt>COPELAND2</cmt>
  <desc>COPELAND2</desc>
  <sym>Airport</sym>
</wpt>
<wpt lat="50.144858630" lon="-124.678708454">
  <time>2002-09-19T13:02:47Z</time>
  <name>COPPERSTNE</name>
  <cmt>COPPERSTNE</cmt>
  <desc>COPPERSTNE</desc>
  <sym>Airport</sym>
</wpt>
<wpt lat="50.117044898" lon="-124.744228386">
  <time>2002-09-19T12:44:49Z</time>
  <name>CURMES</name>
  <cmt>CURMES</cmt>
  <desc>CURMES</desc>
  <sym>Airport</sym>
</wpt>
<wpt lat="50.073819411" lon="-124.776953668">
  <time>2002-09-19T12:48:52Z</time>
  <name>GALLEY</name>
  <cmt>GALLEY</cmt>
  <desc>GALLEY</desc>
  <sym>Airport</sym>
</wpt>
<wpt lat="50.130449006" lon="-124.800993492">
  <time>2002-09-19T12:58:59Z</time>
  <name>HIKE-REFG2</name>
  <cmt>HIKE-REFG2</cmt>
  <desc>HIKE-REFG2</desc>
  <sym>Airport</sym>
</wpt>
<wpt lat="50.133257680" lon="-124.831202881">
  <time>2002-09-19T12:58:32Z</time>
  <name>HIKE-RFG1</name>
  <cmt>HIKE-RFG1</cmt>
  <desc>HIKE-RFG1</desc>
  <sym>Airport</sym>
</wpt>
<wpt lat="50.145440323" lon="-124.818594995">
  <time>2002-09-19T12:59:47Z</time>
  <name>HIKE-RFG3</name>
  <cmt>HIKE-RFG3</cmt>
  <desc>HIKE-RFG3</desc>
  <sym>Airport</sym>
</wpt>
<wpt lat="50.087732570" lon="-124.849767655">
  <time>2002-09-19T12:55:35Z</time>
  <name>KINGHORN</name>
  <cmt>KINGHORN</cmt>
  <desc>KINGHORN</desc>
  <sym>Airport</sym>
</wpt>
<wpt lat="50.106466913" lon="-124.827271868">
  <time>2002-09-19T12:57:02Z</time>
  <name>MARTIN</name>
  <cmt>MARTIN</cmt>
  <desc>MARTIN</desc>
  <sym>Airport</sym>
</wpt>
<wpt lat="50.147829895" lon="-124.696320501">
  <time>2002-09-19T12:40:53Z</time>
  <name>MARY</name>
  <cmt>13-SEP-02 21:00</cmt>
  <desc>13-SEP-02 21:00</desc>
  <sym>Anchor</sym>
</wpt>
<wpt lat="50.124197148" lon="-124.838613539">
  <time>2002-09-19T12:57:59Z</time>
  <name>REFUGE-W</name>
  <cmt>REFUGE-W</cmt>
  <desc>REFUGE-W</desc>
  <sym>Airport</sym>
</wpt>
<wpt lat="50.159062601" lon="-124.751132096">
  <time>2002-09-19T12:46:08Z</time>
  <name>ROSCOE-AIM</name>
  <cmt>ROSCOE-AIM</cmt>
  <desc>ROSCOE-AIM</desc>
  <sym>Airport</sym>
</wpt>
<wpt lat="50.158380346" lon="-124.774800440">
  <time>2002-09-19T12:40:53Z</time>
  <name>ROSCOE-C</name>
  <cmt>12-SEP-02 21:12</cmt>
  <desc>12-SEP-02 21:12</desc>
  <sym>Anchor</sym>
</wpt>
<wpt lat="50.138959700" lon="-124.731041563">
  <time>2002-09-19T13:00:10Z</time>
  <name>SEALS</name>
  <cmt>SEALS</cmt>
  <desc>SEALS</desc>
  <sym>Airport</sym>
</wpt>
<wpt lat="50.124169703" lon="-124.689230151">
  <time>2002-09-19T12:40:54Z</time>
  <name>TENEDOS</name>
  <cmt>14-SEP-02 17:17</cmt>
  <desc>14-SEP-02 17:17</desc>
  <sym>Anchor</sym>
</wpt>
</gpx>
