<?xml version="1.0" encoding="UTF-8"?>
<gpx
  version="1.0"
  creator="GPSBabel - http://www.gpsbabel.org"
  xmlns:xsi="http://www.w3.org/2001/XMLSchema-instance"
  xmlns="http://www.topografix.com/GPX/1/0"
  xsi:schemaLocation="http://www.topografix.com/GPX/1/0 http://www.topografix.com/GPX/1/0/gpx.xsd">
<time>2009-05-20T16:25:19Z</time>
<bounds minlat="51.184503221" minlon="-116.211507646" maxlat="51.264475155" maxlon="-116.122386778"/>
<wpt lat="51.190183354" lon="-116.126420235">
  <ele>1503.000000</ele>
  <time>2007-10-28T13:11:00Z</time>
  <name>Canyon-T-Junc</name>
  <cmt>28-OCT-07 13:11:02</cmt>
  <desc>28-OCT-07 13:11:02</desc>
  <sym>Crossing</sym>
</wpt>
<wpt lat="51.264475155" lon="-116.208012928">
  <ele>2155.000000</ele>
  <time>2007-10-28T18:13:00Z</time>
  <name>Fay-Hut</name>
  <cmt>28-OCT-07 18:13:40</cmt>
  <desc>28-OCT-07 18:13:40</desc>
  <sym>Museum</sym>
</wpt>
<wpt lat="51.186160405" lon="-116.123449933">
  <ele>1460.597900</ele>
  <time>2007-10-28T13:01:00Z</time>
  <name>Junc</name>
  <cmt>28-OCT-07 13:01:09</cmt>
  <desc>28-OCT-07 13:01:09</desc>
  <sym>Crossing</sym>
</wpt>
<wpt lat="51.187145304" lon="-116.125523251">
  <ele>1467.000000</ele>
  <time>2007-10-28T12:55:00Z</time>
  <name>Marble-Canyon</name>
  <cmt>28-OCT-07 12:55:01</cmt>
  <desc>28-OCT-07 12:55:01</desc>
  <sym>Scenic Area</sym>
</wpt>
<wpt lat="51.184503221" lon="-116.122386778">
  <time>2007-10-29T12:31:00Z</time>
  <name>Parking</name>
  <cmt>29-OCT-07 12:31:06</cmt>
  <desc>29-OCT-07 12:31:06</desc>
  <sym>Parking Area</sym>
</wpt>
<wpt lat="51.259515224" lon="-116.211507646">
  <ele>1851.000000</ele>
  <time>2007-10-28T17:03:00Z</time>
  <name>Steep-Climb</name>
  <cmt>28-OCT-07 17:03:18</cmt>
  <desc>28-OCT-07 17:03:18</desc>
  <sym>Bridge</sym>
</wpt>
<wpt lat="51.263066677" lon="-116.207306168">
  <time>2007-10-30T10:52:00Z</time>
  <name>Top-of-Rope-Climb</name>
  <cmt>30-OCT-07 10:52:52</cmt>
  <desc>30-OCT-07 10:52:52</desc>
  <sym>Anchor</sym>
</wpt>
<wpt lat="51.185988658" lon="-116.123091178">
  <ele>1410.000000</ele>
  <time>2007-10-28T12:12:00Z</time>
  <name>Trailhead-Fay</name>
  <cmt>28-OCT-07 12:12:42</cmt>
  <desc>28-OCT-07 12:12:42</desc>
  <sym>Trail Head</sym>
</wpt>
<wpt lat="51.249533708" lon="-116.206174800">
  <ele>1685.000000</ele>
  <time>2007-10-28T16:28:00Z</time>
  <name>Kaufman-Junc</name>
  <cmt>28-OCT-07 16:28:40</cmt>
  <desc>28-OCT-07 16:28:40</desc>
  <sym>Crossing</sym>
</wpt>
<rte>
  <name>Trail-Head-Fay-Hut</name>
  <rtept lat="51.184503221" lon="-116.122386778">
    <time>2007-10-29T12:31:00Z</time>
    <name>Parking</name>
    <cmt>29-OCT-07 12:31:06</cmt>
    <desc>29-OCT-07 12:31:06</desc>
    <sym>Parking Area</sym>
  </rtept>
  <rtept lat="51.185988658" lon="-116.123091178">
    <ele>1410.000000</ele>
    <time>2007-10-28T12:12:00Z</time>
    <name>Trailhead-Fay</name>
    <cmt>28-OCT-07 12:12:42</cmt>
    <desc>28-OCT-07 12:12:42</desc>
    <sym>Trail Head</sym>
  </rtept>
  <rtept lat="51.187145304" lon="-116.125523251">
    <ele>1467.000000</ele>
    <time>2007-10-28T12:55:00Z</time>
    <name>Marble-Canyon</name>
    <cmt>28-OCT-07 12:55:01</cmt>
    <desc>28-OCT-07 12:55:01</desc>
    <sym>Scenic Area</sym>
  </rtept>
  <rtept lat="51.190183354" lon="-116.126420235">
    <ele>1503.000000</ele>
    <time>2007-10-28T13:11:00Z</time>
    <name>Canyon-T-Junc</name>
    <cmt>28-OCT-07 13:11:02</cmt>
    <desc>28-OCT-07 13:11:02</desc>
    <sym>Crossing</sym>
  </rtept>
  <rtept lat="51.259515224" lon="-116.211507646">
    <ele>1851.000000</ele>
    <time>2007-10-28T17:03:00Z</time>
    <name>Steep-Climb</name>
    <cmt>28-OCT-07 17:03:18</cmt>
    <desc>28-OCT-07 17:03:18</desc>
    <sym>Bridge</sym>
  </rtept>
  <rtept lat="51.263066677" lon="-116.207306168">
    <time>2007-10-30T10:52:00Z</time>
    <name>Top-of-Rope-Climb</name>
    <cmt>30-OCT-07 10:52:52</cmt>
    <desc>30-OCT-07 10:52:52</desc>
    <sym>Anchor</sym>
  </rtept>
  <rtept lat="51.264475155" lon="-116.208012928">
    <ele>2155.000000</ele>
    <time>2007-10-28T18:13:00Z</time>
    <name>Fay-Hut</name>
    <cmt>28-OCT-07 18:13:40</cmt>
    <desc>28-OCT-07 18:13:40</desc>
    <sym>Museum</sym>
  </rtept>
</rte>
</gpx>
