<?xml version="1.0" encoding="UTF-8"?>
<gpx
  version="1.0"
  creator="GPSBabel - http://www.gpsbabel.org"
  xmlns:xsi="http://www.w3.org/2001/XMLSchema-instance"
  xmlns="http://www.topografix.com/GPX/1/0"
  xsi:schemaLocation="http://www.topografix.com/GPX/1/0 http://www.topografix.com/GPX/1/0/gpx.xsd">
<time>2009-05-20T16:13:14Z</time>
<bounds minlat="49.543721467" minlon="-123.599752989" maxlat="49.607906006" maxlon="-123.550357824"/>
<wpt lat="49.584968355" lon="-123.599752989">
  <time>2006-01-26T16:06:50Z</time>
  <name>ChapmanLake</name>
  <cmt>Chapman Lake</cmt>
  <desc>Chapman Lake</desc>
  <sym>Waypoint</sym>
</wpt>
<wpt lat="49.570655991" lon="-123.587093974">
  <time>2006-01-26T16:05:36Z</time>
  <name>McNairCreek</name>
  <cmt>McNair Creek</cmt>
  <desc>McNair Creek</desc>
  <sym>Waypoint</sym>
</wpt>
<wpt lat="49.573825519" lon="-123.586786201">
  <time>2006-01-26T16:07:00Z</time>
  <name>McNairLake</name>
  <cmt>Lake</cmt>
  <desc>Lake</desc>
  <sym>Waypoint</sym>
</wpt>
<wpt lat="49.571857424" lon="-123.550357824">
  <time>2006-01-26T16:05:32Z</time>
  <name>PantherPeak</name>
  <cmt>Panther Peak</cmt>
  <desc>Panther Peak</desc>
  <sym>Waypoint</sym>
</wpt>
<wpt lat="49.543721467" lon="-123.559216130">
  <time>2006-01-26T16:06:22Z</time>
  <name>SDakotaCres</name>
  <cmt>S Dakota Cres</cmt>
  <desc>S Dakota Cres</desc>
  <sym>Waypoint</sym>
</wpt>
<wpt lat="49.607906006" lon="-123.567438135">
  <time>2006-01-26T16:05:00Z</time>
  <name>TetrahedronPeak</name>
  <cmt>Tetrahedron Peak</cmt>
  <desc>Tetrahedron Peak</desc>
  <sym>Waypoint</sym>
</wpt>
<wpt lat="49.584519317" lon="-123.583960745">
  <time>2006-01-26T16:06:46Z</time>
  <name>TetrahedronProv</name>
  <cmt>Tetrahedron Provincial Park</cmt>
  <desc>Tetrahedron Provincial Park</desc>
  <sym>Waypoint</sym>
</wpt>
</gpx>
