<?xml version="1.0" encoding="UTF-8" standalone="no" ?>
<gpx xmlns="http://www.topografix.com/GPX/1/1" creator="G7ToWin A.00.200f - Jan 10 2007 06:02" version="1.1" xmlns:xsi="http://www.w3.org/2001/XMLSchema-instance" xsi:schemaLocation="http://www.topografix.com/GPX/1/1 http://www.topografix.com/GPX/1/1/gpx.xsd">

  <metadata>
    <link href="http://www.gpsinformation.org/ronh/g7towin.htm">
      <text>G7ToWin</text>
    </link>
    <time>2010-04-15T06:01:35Z</time>
    <bounds minlat="49.08000543600000" minlon="-117.78593948100000" maxlat="49.09712859800000" maxlon="-117.76624700100000"/>
  </metadata>

  <wpt lat="49.086431376" lon="-117.767002130">
    <ele>750.669006</ele>
    <time>1989-12-31T00:00:00Z</time>
    <name>_Gd Hwy</name>
    <cmt>17-JUN-09 11:59:19AM</cmt>
    <desc>17-JUN-09 11:59:19AM</desc>
    <sym>City (Small)</sym>
    <extensions>
      <gpxx:WaypointExtension xmlns:gpxx="http://www.garmin.com/xmlschemas/GpxExtensions/v3" xmlns:xsi="http://www.w3.org/2001/XMLSchema-instance" xsi:schemaLocation="http://www.garmin.com/xmlschemas/GpxExtensions/v3 http://www.garmin.com/xmlschemas/GpxExtensions/v3/GpxExtensionsv3.xsd">
        <gpxx:DisplayMode>SymbolAndName</gpxx:DisplayMode>
      </gpxx:WaypointExtension>
    </extensions>
  </wpt>

  <wpt lat="49.080005436" lon="-117.766247223">
    <ele>728.799988</ele>
    <time>1989-12-31T00:00:00Z</time>
    <name>_Gd Wag</name>
    <cmt>17-JUN-09 12:04:21PM</cmt>
    <desc>17-JUN-09 12:04:21PM</desc>
    <sym>City (Small)</sym>
    <extensions>
      <gpxx:WaypointExtension xmlns:gpxx="http://www.garmin.com/xmlschemas/GpxExtensions/v3" xmlns:xsi="http://www.w3.org/2001/XMLSchema-instance" xsi:schemaLocation="http://www.garmin.com/xmlschemas/GpxExtensions/v3 http://www.garmin.com/xmlschemas/GpxExtensions/v3/GpxExtensionsv3.xsd">
        <gpxx:DisplayMode>SymbolAndName</gpxx:DisplayMode>
      </gpxx:WaypointExtension>
    </extensions>
  </wpt>

  <wpt lat="49.083625953" lon="-117.782768493">
    <ele>1022.000000</ele>
    <time>1989-12-31T00:00:00Z</time>
    <name>_Hv Gate</name>
    <cmt>16-JUN-09 10:54:02AM</cmt>
    <desc>16-JUN-09 10:54:02AM</desc>
    <sym>City (Small)</sym>
    <extensions>
      <gpxx:WaypointExtension xmlns:gpxx="http://www.garmin.com/xmlschemas/GpxExtensions/v3" xmlns:xsi="http://www.w3.org/2001/XMLSchema-instance" xsi:schemaLocation="http://www.garmin.com/xmlschemas/GpxExtensions/v3 http://www.garmin.com/xmlschemas/GpxExtensions/v3/GpxExtensionsv3.xsd">
        <gpxx:DisplayMode>SymbolAndName</gpxx:DisplayMode>
      </gpxx:WaypointExtension>
    </extensions>
  </wpt>

  <wpt lat="49.097128598" lon="-117.783923285">
    <ele>1037.620972</ele>
    <time>1989-12-31T00:00:00Z</time>
    <name>_Mw Bot Hd</name>
    <cmt>16-JUN-09 11:21:06AM</cmt>
    <desc>16-JUN-09 11:21:06AM</desc>
    <sym>City (Small)</sym>
    <extensions>
      <gpxx:WaypointExtension xmlns:gpxx="http://www.garmin.com/xmlschemas/GpxExtensions/v3" xmlns:xsi="http://www.w3.org/2001/XMLSchema-instance" xsi:schemaLocation="http://www.garmin.com/xmlschemas/GpxExtensions/v3 http://www.garmin.com/xmlschemas/GpxExtensions/v3/GpxExtensionsv3.xsd">
        <gpxx:DisplayMode>SymbolAndName</gpxx:DisplayMode>
      </gpxx:WaypointExtension>
    </extensions>
  </wpt>

  <wpt lat="49.094856096" lon="-117.785939481">
    <ele>1054.925049</ele>
    <time>1989-12-31T00:00:00Z</time>
    <name>_Mw Mdqt</name>
    <cmt>16-JUN-09 11:19:05AM</cmt>
    <desc>16-JUN-09 11:19:05AM</desc>
    <sym>City (Small)</sym>
    <extensions>
      <gpxx:WaypointExtension xmlns:gpxx="http://www.garmin.com/xmlschemas/GpxExtensions/v3" xmlns:xsi="http://www.w3.org/2001/XMLSchema-instance" xsi:schemaLocation="http://www.garmin.com/xmlschemas/GpxExtensions/v3 http://www.garmin.com/xmlschemas/GpxExtensions/v3/GpxExtensionsv3.xsd">
        <gpxx:DisplayMode>SymbolAndName</gpxx:DisplayMode>
      </gpxx:WaypointExtension>
    </extensions>
  </wpt>

  <wpt lat="49.090852767" lon="-117.785850259">
    <ele>1125.821045</ele>
    <time>1989-12-31T00:00:00Z</time>
    <name>_Mwa Top</name>
    <cmt>16-JUN-09 11:12:33AM</cmt>
    <desc>16-JUN-09 11:12:33AM</desc>
    <sym>City (Small)</sym>
    <extensions>
      <gpxx:WaypointExtension xmlns:gpxx="http://www.garmin.com/xmlschemas/GpxExtensions/v3" xmlns:xsi="http://www.w3.org/2001/XMLSchema-instance" xsi:schemaLocation="http://www.garmin.com/xmlschemas/GpxExtensions/v3 http://www.garmin.com/xmlschemas/GpxExtensions/v3/GpxExtensionsv3.xsd">
        <gpxx:DisplayMode>SymbolAndName</gpxx:DisplayMode>
      </gpxx:WaypointExtension>
    </extensions>
  </wpt>

  <wpt lat="49.087687443" lon="-117.779715090">
    <ele>1082.082031</ele>
    <time>1989-12-31T00:00:00Z</time>
    <name>_Mway Mid Rd</name>
    <cmt>16-JUN-09 11:03:42AM</cmt>
    <desc>16-JUN-09 11:03:42AM</desc>
    <sym>City (Small)</sym>
    <extensions>
      <gpxx:WaypointExtension xmlns:gpxx="http://www.garmin.com/xmlschemas/GpxExtensions/v3" xmlns:xsi="http://www.w3.org/2001/XMLSchema-instance" xsi:schemaLocation="http://www.garmin.com/xmlschemas/GpxExtensions/v3 http://www.garmin.com/xmlschemas/GpxExtensions/v3/GpxExtensionsv3.xsd">
        <gpxx:DisplayMode>SymbolAndName</gpxx:DisplayMode>
      </gpxx:WaypointExtension>
    </extensions>
  </wpt>

  <trk>
    <name>Milky Way rte</name>
    <type>Track black</type>
    <extensions>
      <line xmlns="http://www.topografix.com/GPX/gpx_style/0/2">
        <color>000000</color>
      </line>
      <gpxx:TrackExtension xmlns:gpxx="http://www.garmin.com/xmlschemas/GpxExtensions/v3" xmlns:xsi="http://www.w3.org/2001/XMLSchema-instance" xsi:schemaLocation="http://www.garmin.com/xmlschemas/GpxExtensions/v3 http://www.garmin.com/xmlschemas/GpxExtensions/v3/GpxExtensionsv3.xsd">
        <gpxx:DisplayColor>Black</gpxx:DisplayColor>
      </gpxx:TrackExtension>
    </extensions>
    <trkseg>
      <trkpt lat="49.083626177" lon="-117.782767983">
        <ele>1021.999512</ele>
        <time>1989-12-31T00:00:00Z</time>
      </trkpt>
      <trkpt lat="49.087687880" lon="-117.779715043">
        <ele>1082.081543</ele>
        <time>1989-12-31T00:00:00Z</time>
      </trkpt>
      <trkpt lat="49.090852551" lon="-117.785850931">
        <ele>1125.821045</ele>
        <time>1989-12-31T00:00:00Z</time>
      </trkpt>
      <trkpt lat="49.094856083" lon="-117.785939276">
        <ele>1054.924561</ele>
        <time>1989-12-31T00:00:00Z</time>
      </trkpt>
      <trkpt lat="49.097128166" lon="-117.783923764">
        <ele>1037.620850</ele>
        <time>1989-12-31T00:00:00Z</time>
      </trkpt>
      <trkpt lat="49.086431516" lon="-117.767001791">
        <ele>750.669434</ele>
        <time>1989-12-31T00:00:00Z</time>
      </trkpt>
      <trkpt lat="49.080005614" lon="-117.766247001">
        <ele>728.799805</ele>
        <time>1989-12-31T00:00:00Z</time>
      </trkpt>
    </trkseg>
  </trk>
</gpx>
