<?xml version="1.0" encoding="UTF-8"?>
<gpx
  version="1.0"
  creator="GPSBabel - http://www.gpsbabel.org"
  xmlns:xsi="http://www.w3.org/2001/XMLSchema-instance"
  xmlns="http://www.topografix.com/GPX/1/0"
  xsi:schemaLocation="http://www.topografix.com/GPX/1/0 http://www.topografix.com/GPX/1/0/gpx.xsd">
<time>2009-06-02T23:52:36Z</time>
<bounds minlat="48.732084924" minlon="-123.315938020" maxlat="48.799504794" maxlon="-123.199278679"/>
<wpt lat="48.761948517" lon="-123.256071433">
  <time>2000-07-16T18:48:00Z</time>
  <name>ANSLPT</name>
  <cmt>16-JUL-00 18:48</cmt>
  <desc>16-JUL-00 18:48</desc>
  <sym>Waypoint</sym>
</wpt>
<wpt lat="48.747625325" lon="-123.228567482">
  <time>2000-07-16T18:51:00Z</time>
  <name>BDWLHB</name>
  <cmt>16-JUL-00 18:51</cmt>
  <desc>16-JUL-00 18:51</desc>
  <sym>Waypoint</sym>
</wpt>
<wpt lat="48.755012176" lon="-123.245938287">
  <time>2000-07-16T18:50:00Z</time>
  <name>BEUMNT</name>
  <cmt>16-JUL-00 18:50</cmt>
  <desc>16-JUL-00 18:50</desc>
  <sym>Waypoint</sym>
</wpt>
<wpt lat="48.764770186" lon="-123.256645067">
  <time>2000-07-16T18:47:00Z</time>
  <name>CHANEL</name>
  <cmt>16-JUL-00 18:47</cmt>
  <desc>16-JUL-00 18:47</desc>
  <sym>Waypoint</sym>
</wpt>
<wpt lat="48.774608415" lon="-123.202319330">
  <time>2000-07-16T18:49:00Z</time>
  <name>CRKRPT</name>
  <cmt>16-JUL-00 18:49</cmt>
  <desc>16-JUL-00 18:49</desc>
  <sym>Waypoint</sym>
</wpt>
<wpt lat="48.742265887" lon="-123.199278679">
  <time>2000-07-16T18:58:00Z</time>
  <name>CRTSPK</name>
  <cmt>16-JUL-00 18:58</cmt>
  <desc>16-JUL-00 18:58</desc>
  <sym>Waypoint</sym>
</wpt>
<wpt lat="48.757115357" lon="-123.257106768">
  <time>2000-07-16T18:51:00Z</time>
  <name>DRAWRK</name>
  <cmt>16-JUL-00 18:51</cmt>
  <desc>16-JUL-00 18:51</desc>
  <sym>Waypoint</sym>
</wpt>
<wpt lat="48.794880340" lon="-123.288343112">
  <time>2000-07-16T19:09:00Z</time>
  <name>GOLEFT</name>
  <cmt>16-JUL-00 19:09</cmt>
  <desc>16-JUL-00 19:09</desc>
  <sym>Waypoint</sym>
</wpt>
<wpt lat="48.763847151" lon="-123.270050791">
  <time>2000-07-16T19:09:00Z</time>
  <name>GOLFT</name>
  <cmt>16-JUL-00 19:09</cmt>
  <desc>16-JUL-00 19:09</desc>
  <sym>Waypoint</sym>
</wpt>
<wpt lat="48.794376424" lon="-123.283687637">
  <time>2000-07-16T19:09:00Z</time>
  <name>GORGHT</name>
  <cmt>16-JUL-00 19:09</cmt>
  <desc>16-JUL-00 19:09</desc>
  <sym>Waypoint</sym>
</wpt>
<wpt lat="48.759947306" lon="-123.268157604">
  <time>2000-07-16T18:51:00Z</time>
  <name>MEDBCH</name>
  <cmt>16-JUL-00 18:51</cmt>
  <desc>16-JUL-00 18:51</desc>
  <sym>Waypoint</sym>
</wpt>
<wpt lat="48.758950033" lon="-123.240680943">
  <time>2000-07-16T18:52:00Z</time>
  <name>MNTNRM</name>
  <cmt>16-JUL-00 18:52</cmt>
  <desc>16-JUL-00 18:52</desc>
  <sym>Waypoint</sym>
</wpt>
<wpt lat="48.799504794" lon="-123.315938020">
  <time>2000-07-16T19:09:00Z</time>
  <name>OTRBAY</name>
  <cmt>16-JUL-00 19:09</cmt>
  <desc>16-JUL-00 19:09</desc>
  <sym>Waypoint</sym>
</wpt>
<wpt lat="48.782837377" lon="-123.242681884">
  <time>2000-07-16T18:49:00Z</time>
  <name>PARYRK</name>
  <cmt>16-JUL-00 18:49</cmt>
  <desc>16-JUL-00 18:49</desc>
  <sym>Waypoint</sym>
</wpt>
<wpt lat="48.772795619" lon="-123.260206917">
  <time>2000-07-16T19:08:00Z</time>
  <name>PLRDCV</name>
  <cmt>16-JUL-00 19:08</cmt>
  <desc>16-JUL-00 19:08</desc>
  <sym>Waypoint</sym>
</wpt>
<wpt lat="48.761851775" lon="-123.248067187">
  <time>2000-07-16T19:08:00Z</time>
  <name>PRKNG</name>
  <cmt>16-JUL-00 19:08</cmt>
  <desc>16-JUL-00 19:08</desc>
  <sym>Waypoint</sym>
</wpt>
<wpt lat="48.776716289" lon="-123.272185995">
  <time>2000-07-16T18:47:00Z</time>
  <name>PRTBRN</name>
  <cmt>16-JUL-00 18:47</cmt>
  <desc>16-JUL-00 18:47</desc>
  <sym>Waypoint</sym>
</wpt>
<wpt lat="48.739235828" lon="-123.230724659">
  <time>2000-07-16T18:52:00Z</time>
  <name>PTRCVE</name>
  <cmt>16-JUL-00 18:52</cmt>
  <desc>16-JUL-00 18:52</desc>
  <sym>Waypoint</sym>
</wpt>
<wpt lat="48.777971641" lon="-123.275420083">
  <time>2000-07-16T18:59:00Z</time>
  <name>PUB</name>
  <cmt>16-JUL-00 18:59</cmt>
  <desc>16-JUL-00 18:59</desc>
  <sym>Waypoint</sym>
</wpt>
<wpt lat="48.769764583" lon="-123.238293832">
  <time>2000-07-16T18:47:00Z</time>
  <name>RAZRPT</name>
  <cmt>16-JUL-00 18:47</cmt>
  <desc>16-JUL-00 18:47</desc>
  <sym>Waypoint</sym>
</wpt>
<wpt lat="48.752400119" lon="-123.239778960">
  <time>2000-07-16T18:50:00Z</time>
  <name>SKULIS</name>
  <cmt>16-JUL-00 18:50</cmt>
  <desc>16-JUL-00 18:50</desc>
  <sym>Waypoint</sym>
</wpt>
<wpt lat="48.732084924" lon="-123.207517609">
  <time>2000-07-16T18:57:00Z</time>
  <name>TILYPT</name>
  <cmt>16-JUL-00 18:57</cmt>
  <desc>16-JUL-00 18:57</desc>
  <sym>Waypoint</sym>
</wpt>
<wpt lat="48.736172667" lon="-123.230729681">
  <time>2000-07-16T18:57:00Z</time>
  <name>WALCPT</name>
  <cmt>16-JUL-00 18:57</cmt>
  <desc>16-JUL-00 18:57</desc>
  <sym>Waypoint</sym>
</wpt>
</gpx>
