<?xml version="1.0" encoding="UTF-8"?>
<gpx
  version="1.0"
  creator="GPSBabel - http://www.gpsbabel.org"
  xmlns:xsi="http://www.w3.org/2001/XMLSchema-instance"
  xmlns="http://www.topografix.com/GPX/1/0"
  xsi:schemaLocation="http://www.topografix.com/GPX/1/0 http://www.topografix.com/GPX/1/0/gpx.xsd">
<time>2009-06-02T22:54:50Z</time>
<bounds minlat="49.167841362" minlon="-123.934799206" maxlat="49.186429801" maxlon="-123.915047036"/>
<wpt lat="49.183151916" lon="-123.915235130">
  <time>2000-07-24T14:25:00Z</time>
  <name>BTCHLR</name>
  <cmt>24-JUL-00 14:25</cmt>
  <desc>24-JUL-00 14:25</desc>
  <sym>Waypoint</sym>
</wpt>
<wpt lat="49.170781333" lon="-123.917837315">
  <time>2000-07-24T14:25:00Z</time>
  <name>GLLWS</name>
  <cmt>24-JUL-00 14:25</cmt>
  <desc>24-JUL-00 14:25</desc>
  <sym>Waypoint</sym>
</wpt>
<wpt lat="49.180909671" lon="-123.929161360">
  <time>2000-07-24T14:28:00Z</time>
  <name>NCSTLE</name>
  <cmt>24-JUL-00 14:28</cmt>
  <desc>24-JUL-00 14:28</desc>
  <sym>Waypoint</sym>
</wpt>
<wpt lat="49.167841362" lon="-123.934799206">
  <time>2000-07-24T14:27:00Z</time>
  <name>NNAIMO</name>
  <cmt>24-JUL-00 14:27</cmt>
  <desc>24-JUL-00 14:27</desc>
  <sym>Waypoint</sym>
</wpt>
<wpt lat="49.176564624" lon="-123.925379530">
  <time>2000-07-24T14:25:00Z</time>
  <name>PIDOCK</name>
  <cmt>24-JUL-00 14:25</cmt>
  <desc>24-JUL-00 14:25</desc>
  <sym>Waypoint</sym>
</wpt>
<wpt lat="49.181682286" lon="-123.924241332">
  <time>2000-07-24T14:25:00Z</time>
  <name>PIRATE</name>
  <cmt>24-JUL-00 14:25</cmt>
  <desc>24-JUL-00 14:25</desc>
  <sym>Waypoint</sym>
</wpt>
<wpt lat="49.186429801" lon="-123.918303778">
  <time>2000-07-24T14:28:00Z</time>
  <name>PSREEF</name>
  <cmt>24-JUL-00 14:28</cmt>
  <desc>24-JUL-00 14:28</desc>
  <sym>Waypoint</sym>
</wpt>
<wpt lat="49.173769298" lon="-123.915047036">
  <time>2000-07-24T14:25:00Z</time>
  <name>STUART</name>
  <cmt>24-JUL-00 14:25</cmt>
  <desc>24-JUL-00 14:25</desc>
  <sym>Waypoint</sym>
</wpt>
</gpx>
