<?xml version="1.0" encoding="UTF-8"?>
<gpx
  version="1.0"
  creator="GPSBabel - http://www.gpsbabel.org"
  xmlns:xsi="http://www.w3.org/2001/XMLSchema-instance"
  xmlns="http://www.topografix.com/GPX/1/0"
  xsi:schemaLocation="http://www.topografix.com/GPX/1/0 http://www.topografix.com/GPX/1/0/gpx.xsd">
<time>2009-06-02T21:52:55Z</time>
<bounds minlat="49.013185605" minlon="-125.840368834" maxlat="49.109723684" maxlon="-125.673771174"/>
<wpt lat="49.062608345" lon="-125.789851744">
  <time>2000-07-25T12:36:00Z</time>
  <name>BOXISL</name>
  <cmt>25-JUL-00 12:36</cmt>
  <desc>25-JUL-00 12:36</desc>
  <sym>Waypoint</sym>
</wpt>
<wpt lat="49.076415798" lon="-125.802480101">
  <time>2000-07-25T12:37:00Z</time>
  <name>BRANCH</name>
  <cmt>25-JUL-00 12:37</cmt>
  <desc>25-JUL-00 12:37</desc>
  <sym>Waypoint</sym>
</wpt>
<wpt lat="49.054410656" lon="-125.720313436">
  <time>2000-07-25T12:39:00Z</time>
  <name>GPCAMP</name>
  <cmt>25-JUL-00 12:39</cmt>
  <desc>25-JUL-00 12:39</desc>
  <sym>Waypoint</sym>
</wpt>
<wpt lat="49.051444803" lon="-125.723001381">
  <time>2000-07-25T12:39:00Z</time>
  <name>GRNPT</name>
  <cmt>25-JUL-00 12:39</cmt>
  <desc>25-JUL-00 12:39</desc>
  <sym>Waypoint</sym>
</wpt>
<wpt lat="49.042046182" lon="-125.701865003">
  <time>2000-07-25T12:39:00Z</time>
  <name>PCNC2</name>
  <cmt>25-JUL-00 12:39</cmt>
  <desc>25-JUL-00 12:39</desc>
  <sym>Waypoint</sym>
</wpt>
<wpt lat="49.072826931" lon="-125.765766609">
  <time>2000-07-25T12:38:00Z</time>
  <name>PCNIC1</name>
  <cmt>25-JUL-00 12:38</cmt>
  <desc>25-JUL-00 12:38</desc>
  <sym>Waypoint</sym>
</wpt>
<wpt lat="49.109723684" lon="-125.786692172">
  <time>2000-07-25T12:40:00Z</time>
  <name>PCNIC3</name>
  <cmt>25-JUL-00 12:40</cmt>
  <desc>25-JUL-00 12:40</desc>
  <sym>Waypoint</sym>
</wpt>
<wpt lat="49.081812217" lon="-125.801664953">
  <time>2000-07-25T12:36:00Z</time>
  <name>PRKNG</name>
  <cmt>25-JUL-00 12:36</cmt>
  <desc>25-JUL-00 12:36</desc>
  <sym>Waypoint</sym>
</wpt>
<wpt lat="49.083030253" lon="-125.840368834">
  <time>2000-07-25T12:41:00Z</time>
  <name>RDRHIL</name>
  <cmt>25-JUL-00 12:41</cmt>
  <desc>25-JUL-00 12:41</desc>
  <sym>Waypoint</sym>
</wpt>
<wpt lat="49.069270884" lon="-125.805049345">
  <time>2000-07-25T12:36:00Z</time>
  <name>SCTHD</name>
  <cmt>25-JUL-00 12:36</cmt>
  <desc>25-JUL-00 12:36</desc>
  <sym>Waypoint</sym>
</wpt>
<wpt lat="49.067580476" lon="-125.814866323">
  <time>2000-07-25T12:36:00Z</time>
  <name>SCVWST</name>
  <cmt>25-JUL-00 12:36</cmt>
  <desc>25-JUL-00 12:36</desc>
  <sym>Waypoint</sym>
</wpt>
<wpt lat="49.013185605" lon="-125.673771174">
  <time>2000-07-25T12:42:00Z</time>
  <name>WCKINN</name>
  <cmt>25-JUL-00 12:42</cmt>
  <desc>25-JUL-00 12:42</desc>
  <sym>Waypoint</sym>
</wpt>
</gpx>
