<?xml version="1.0" encoding="UTF-8"?>
<gpx
  version="1.0"
  creator="GPSBabel - http://www.gpsbabel.org"
  xmlns:xsi="http://www.w3.org/2001/XMLSchema-instance"
  xmlns="http://www.topografix.com/GPX/1/0"
  xsi:schemaLocation="http://www.topografix.com/GPX/1/0 http://www.topografix.com/GPX/1/0/gpx.xsd">
<time>2009-05-20T19:04:33Z</time>
<bounds minlat="53.000182460" minlon="-121.548410339" maxlat="53.069228105" maxlon="-121.514859535"/>
<wpt lat="53.061766134" lon="-121.524531489">
  <ele>-0.114380</ele>
  <time>2004-01-02T04:33:58Z</time>
  <name>005</name>
  <cmt>005</cmt>
  <desc>005</desc>
  <sym>Waypoint</sym>
</wpt>
<wpt lat="53.061766134" lon="-121.524531489">
  <ele>-0.114380</ele>
  <time>2004-01-02T04:34:03Z</time>
  <name>005</name>
  <cmt>005</cmt>
  <desc>005</desc>
  <sym>Waypoint</sym>
</wpt>
<wpt lat="53.060757791" lon="-121.522966183">
  <ele>-0.114380</ele>
  <time>2004-01-02T04:33:58Z</time>
  <name>006</name>
  <cmt>006</cmt>
  <desc>006</desc>
  <sym>Waypoint</sym>
</wpt>
<wpt lat="53.060757791" lon="-121.522966183">
  <ele>-0.114380</ele>
  <time>2004-01-02T04:34:03Z</time>
  <name>006</name>
  <cmt>006</cmt>
  <desc>006</desc>
  <sym>Waypoint</sym>
</wpt>
<wpt lat="53.051647004" lon="-121.521074091">
  <ele>-0.114380</ele>
  <time>2004-01-02T04:33:58Z</time>
  <name>007</name>
  <cmt>007</cmt>
  <desc>007</desc>
  <sym>Waypoint</sym>
</wpt>
<wpt lat="53.051647004" lon="-121.521074091">
  <ele>-0.114380</ele>
  <time>2004-01-02T04:34:02Z</time>
  <name>007</name>
  <cmt>007</cmt>
  <desc>007</desc>
  <sym>Waypoint</sym>
</wpt>
<wpt lat="53.046282673" lon="-121.520071754">
  <ele>-0.114380</ele>
  <time>2004-01-02T04:33:58Z</time>
  <name>008</name>
  <cmt>008</cmt>
  <desc>008</desc>
  <sym>Waypoint</sym>
</wpt>
<wpt lat="53.046282673" lon="-121.520071754">
  <ele>-0.114380</ele>
  <time>2004-01-02T04:34:02Z</time>
  <name>008</name>
  <cmt>008</cmt>
  <desc>008</desc>
  <sym>Waypoint</sym>
</wpt>
<wpt lat="53.028773040" lon="-121.538440583">
  <ele>-0.114380</ele>
  <time>2004-01-02T04:33:59Z</time>
  <name>009</name>
  <cmt>009</cmt>
  <desc>009</desc>
  <sym>Waypoint</sym>
</wpt>
<wpt lat="53.027591733" lon="-121.540417553">
  <ele>-0.114380</ele>
  <time>2004-01-02T04:33:59Z</time>
  <name>010</name>
  <cmt>010</cmt>
  <desc>010</desc>
  <sym>Waypoint</sym>
</wpt>
<wpt lat="53.007005825" lon="-121.546427181">
  <ele>-0.114380</ele>
  <time>2004-01-02T04:34:00Z</time>
  <name>011</name>
  <cmt>011</cmt>
  <desc>011</desc>
  <sym>Waypoint</sym>
</wpt>
<wpt lat="53.004399139" lon="-121.541474334">
  <ele>-0.114380</ele>
  <time>2004-01-02T04:34:00Z</time>
  <name>012</name>
  <cmt>012</cmt>
  <desc>012</desc>
  <sym>Waypoint</sym>
</wpt>
<wpt lat="53.005447017" lon="-121.538733921">
  <ele>-0.114380</ele>
  <time>2004-01-02T04:34:00Z</time>
  <name>013</name>
  <cmt>013</cmt>
  <desc>013</desc>
  <sym>Waypoint</sym>
</wpt>
<wpt lat="53.001054150" lon="-121.534405552">
  <ele>-0.114380</ele>
  <time>2004-01-02T04:34:00Z</time>
  <name>014</name>
  <cmt>014</cmt>
  <desc>014</desc>
  <sym>Waypoint</sym>
</wpt>
<wpt lat="53.000182460" lon="-121.533487293">
  <ele>-0.114380</ele>
  <time>2004-01-02T04:34:01Z</time>
  <name>015</name>
  <cmt>015</cmt>
  <desc>015</desc>
  <sym>Waypoint</sym>
</wpt>
<wpt lat="53.008606732" lon="-121.521759015">
  <ele>-0.114380</ele>
  <time>2004-01-02T04:34:01Z</time>
  <name>016</name>
  <cmt>016</cmt>
  <desc>016</desc>
  <sym>Waypoint</sym>
</wpt>
<wpt lat="53.018556319" lon="-121.524806142">
  <ele>-0.114380</ele>
  <time>2004-01-02T04:34:01Z</time>
  <name>017</name>
  <cmt>017</cmt>
  <desc>017</desc>
  <sym>Waypoint</sym>
</wpt>
<wpt lat="53.019897269" lon="-121.524846867">
  <ele>-0.114380</ele>
  <time>2004-01-02T04:34:01Z</time>
  <name>018</name>
  <cmt>018</cmt>
  <desc>018</desc>
  <sym>Waypoint</sym>
</wpt>
<wpt lat="53.028438237" lon="-121.529731370">
  <ele>-0.114380</ele>
  <time>2004-01-02T04:34:02Z</time>
  <name>019</name>
  <cmt>019</cmt>
  <desc>019</desc>
  <sym>Waypoint</sym>
</wpt>
<wpt lat="53.001027537" lon="-121.530355941">
  <ele>1783.357910</ele>
  <time>2004-01-02T04:34:01Z</time>
  <name>ATV TRACK</name>
  <cmt>ATV TRACK</cmt>
  <desc>ATV TRACK</desc>
  <sym>Waypoint</sym>
</wpt>
<wpt lat="53.069228105" lon="-121.514859535">
  <ele>1256.799805</ele>
  <time>2004-01-02T04:34:03Z</time>
  <name>BARKRVILLE</name>
  <cmt>BARKRVILLE</cmt>
  <desc>BARKRVILLE</desc>
  <sym>Lodging</sym>
</wpt>
<wpt lat="53.069228105" lon="-121.514859535">
  <ele>1256.799805</ele>
  <time>2004-01-02T04:33:57Z</time>
  <name>BARKRVILLE</name>
  <cmt>BARKRVILLE</cmt>
  <desc>BARKRVILLE</desc>
  <sym>Lodging</sym>
</wpt>
<wpt lat="53.032824642" lon="-121.530174221">
  <ele>-0.114380</ele>
  <time>2004-01-02T04:33:59Z</time>
  <name>BEGIN DICH</name>
  <cmt>BEGIN DICH</cmt>
  <desc>BEGIN DICH</desc>
  <sym>Waypoint</sym>
</wpt>
<wpt lat="53.032824642" lon="-121.530174221">
  <ele>-0.114380</ele>
  <time>2004-01-02T04:34:02Z</time>
  <name>BEGIN DICH</name>
  <cmt>BEGIN DICH</cmt>
  <desc>BEGIN DICH</desc>
  <sym>Waypoint</sym>
</wpt>
<wpt lat="53.062595895" lon="-121.523586809">
  <ele>1327.215820</ele>
  <time>2004-01-02T04:34:03Z</time>
  <name>CAVE</name>
  <cmt>CAVE</cmt>
  <desc>CAVE</desc>
  <sym>Waypoint</sym>
</wpt>
<wpt lat="53.062595895" lon="-121.523586809">
  <ele>1327.215820</ele>
  <time>2004-01-02T04:33:58Z</time>
  <name>CAVE</name>
  <cmt>CAVE</cmt>
  <desc>CAVE</desc>
  <sym>Waypoint</sym>
</wpt>
<wpt lat="53.018785435" lon="-121.538409940">
  <ele>1546.635010</ele>
  <time>2004-01-02T04:34:00Z</time>
  <name>COOPER CBN</name>
  <cmt>COOPER CBN</cmt>
  <desc>COOPER CBN</desc>
  <sym>Residence</sym>
</wpt>
<wpt lat="53.033921260" lon="-121.529795397">
  <ele>1538.944580</ele>
  <time>2004-01-02T04:33:59Z</time>
  <name>CROSS MEDO</name>
  <cmt>CROSS MEDO</cmt>
  <desc>CROSS MEDO</desc>
  <sym>Waypoint</sym>
</wpt>
<wpt lat="53.007424724" lon="-121.548410339">
  <ele>-0.114380</ele>
  <time>2004-01-02T04:34:00Z</time>
  <name>GRNDHOG LK</name>
  <cmt>GRNDHOG LK</cmt>
  <desc>GRNDHOG LK</desc>
  <sym>Fishing Area</sym>
</wpt>
<wpt lat="53.001181090" lon="-121.537120975">
  <ele>1850.890137</ele>
  <time>2004-01-02T04:34:00Z</time>
  <name>LOST TRAIL</name>
  <cmt>LOST TRAIL</cmt>
  <desc>LOST TRAIL</desc>
  <sym>Waypoint</sym>
</wpt>
<wpt lat="53.007962368" lon="-121.521778053">
  <ele>1861.945068</ele>
  <time>2004-01-02T04:34:01Z</time>
  <name>PDR SIGN</name>
  <cmt>PDR SIGN</cmt>
  <desc>PDR SIGN</desc>
  <sym>Waypoint</sym>
</wpt>
<wpt lat="53.033392965" lon="-121.529167605">
  <ele>-0.114380</ele>
  <time>2004-01-02T04:33:59Z</time>
  <name>POWD FK</name>
  <cmt>POWD FK</cmt>
  <desc>POWD FK</desc>
  <sym>Waypoint</sym>
</wpt>
<wpt lat="53.019211010" lon="-121.538364247">
  <ele>1542.309082</ele>
  <time>2004-01-02T04:33:59Z</time>
  <name>RD TRL FK</name>
  <cmt>RD TRL FK</cmt>
  <desc>RD TRL FK</desc>
  <sym>Waypoint</sym>
</wpt>
<wpt lat="53.052947916" lon="-121.521148906">
  <ele>1357.737305</ele>
  <time>2004-01-02T04:33:58Z</time>
  <name>RICHFIELD</name>
  <cmt>RICHFIELD</cmt>
  <desc>RICHFIELD</desc>
  <sym>Waypoint</sym>
</wpt>
<wpt lat="53.052947916" lon="-121.521148906">
  <ele>1357.737305</ele>
  <time>2004-01-02T04:34:03Z</time>
  <name>RICHFIELD</name>
  <cmt>RICHFIELD</cmt>
  <desc>RICHFIELD</desc>
  <sym>Waypoint</sym>
</wpt>
<wpt lat="53.004323161" lon="-121.543196778">
  <ele>1821.089355</ele>
  <time>2004-01-02T04:34:00Z</time>
  <name>SNOW+LAKE</name>
  <cmt>SNOW+LAKE</cmt>
  <desc>SNOW+LAKE</desc>
  <sym>Waypoint</sym>
</wpt>
<wpt lat="53.039677507" lon="-121.526656641">
  <ele>1475.978760</ele>
  <time>2004-01-02T04:34:02Z</time>
  <name>SNOWMBL TR</name>
  <cmt>SNOWMBL TR</cmt>
  <desc>SNOWMBL TR</desc>
  <sym>Waypoint</sym>
</wpt>
<wpt lat="53.039677507" lon="-121.526656641">
  <ele>1475.978760</ele>
  <time>2004-01-02T04:33:58Z</time>
  <name>SNOWMBL TR</name>
  <cmt>SNOWMBL TR</cmt>
  <desc>SNOWMBL TR</desc>
  <sym>Waypoint</sym>
</wpt>
<wpt lat="53.030465191" lon="-121.531377383">
  <ele>-0.114380</ele>
  <time>2004-01-02T04:34:02Z</time>
  <name>STEEP PART</name>
  <cmt>STEEP PART</cmt>
  <desc>STEEP PART</desc>
  <sym>Waypoint</sym>
</wpt>
<wpt lat="53.003105872" lon="-121.522070662">
  <ele>-0.114380</ele>
  <time>2004-01-02T04:34:01Z</time>
  <name>SUMIT SIGN</name>
  <cmt>SUMIT SIGN</cmt>
  <desc>SUMIT SIGN</desc>
  <sym>Waypoint</sym>
</wpt>
<wpt lat="53.034037582" lon="-121.529678094">
  <ele>1538.704346</ele>
  <time>2004-01-02T04:33:59Z</time>
  <name>SUMMIT RK</name>
  <cmt>SUMMIT RK</cmt>
  <desc>SUMMIT RK</desc>
  <sym>Summit</sym>
</wpt>
<wpt lat="53.034037582" lon="-121.529678094">
  <ele>1538.704346</ele>
  <time>2004-01-02T04:34:02Z</time>
  <name>SUMMIT RK</name>
  <cmt>SUMMIT RK</cmt>
  <desc>SUMMIT RK</desc>
  <sym>Summit</sym>
</wpt>
<wpt lat="53.022471852" lon="-121.526859838">
  <ele>1852.572266</ele>
  <time>2004-01-02T04:34:01Z</time>
  <name>TOP RIDGE</name>
  <cmt>TOP RIDGE</cmt>
  <desc>TOP RIDGE</desc>
  <sym>Waypoint</sym>
</wpt>
<wpt lat="53.052356547" lon="-121.521091570">
  <ele>1361.342285</ele>
  <time>2004-01-02T04:34:02Z</time>
  <name>WALKER GL</name>
  <cmt>WALKER GL</cmt>
  <desc>WALKER GL</desc>
  <sym>Waypoint</sym>
</wpt>
<wpt lat="53.052356547" lon="-121.521091570">
  <ele>1361.342285</ele>
  <time>2004-01-02T04:33:58Z</time>
  <name>WALKER GL</name>
  <cmt>WALKER GL</cmt>
  <desc>WALKER GL</desc>
  <sym>Waypoint</sym>
</wpt>
<wpt lat="53.026201047" lon="-121.539839728">
  <ele>1543.750977</ele>
  <time>2004-01-02T04:33:59Z</time>
  <name>WASHOUT</name>
  <cmt>WASHOUT</cmt>
  <desc>WASHOUT</desc>
  <sym>Waypoint</sym>
</wpt>
<rte>
  <name>BALD MOUNTAIN</name>
  <rtept lat="53.069228105" lon="-121.514859535">
    <ele>1256.799805</ele>
    <time>2004-01-02T04:33:57Z</time>
    <name>BARKRVILLE</name>
    <sym>Lodging</sym>
  </rtept>
  <rtept lat="53.062595895" lon="-121.523586809">
    <ele>1327.215820</ele>
    <time>2004-01-02T04:33:58Z</time>
    <name>CAVE</name>
    <sym>Waypoint</sym>
  </rtept>
  <rtept lat="53.061766134" lon="-121.524531489">
    <ele>-0.114380</ele>
    <time>2004-01-02T04:33:58Z</time>
    <name>005</name>
    <sym>Waypoint</sym>
  </rtept>
  <rtept lat="53.060757791" lon="-121.522966183">
    <ele>-0.114380</ele>
    <time>2004-01-02T04:33:58Z</time>
    <name>006</name>
    <sym>Waypoint</sym>
  </rtept>
  <rtept lat="53.052947916" lon="-121.521148906">
    <ele>1357.737305</ele>
    <time>2004-01-02T04:33:58Z</time>
    <name>RICHFIELD</name>
    <sym>Waypoint</sym>
  </rtept>
  <rtept lat="53.052356547" lon="-121.521091570">
    <ele>1361.342285</ele>
    <time>2004-01-02T04:33:58Z</time>
    <name>WALKER GL</name>
    <sym>Waypoint</sym>
  </rtept>
  <rtept lat="53.051647004" lon="-121.521074091">
    <ele>-0.114380</ele>
    <time>2004-01-02T04:33:58Z</time>
    <name>007</name>
    <sym>Waypoint</sym>
  </rtept>
  <rtept lat="53.046282673" lon="-121.520071754">
    <ele>-0.114380</ele>
    <time>2004-01-02T04:33:58Z</time>
    <name>008</name>
    <sym>Waypoint</sym>
  </rtept>
  <rtept lat="53.039677507" lon="-121.526656641">
    <ele>1475.978760</ele>
    <time>2004-01-02T04:33:58Z</time>
    <name>SNOWMBL TR</name>
    <sym>Waypoint</sym>
  </rtept>
  <rtept lat="53.034037582" lon="-121.529678094">
    <ele>1538.704346</ele>
    <time>2004-01-02T04:33:59Z</time>
    <name>SUMMIT RK</name>
    <sym>Summit</sym>
  </rtept>
  <rtept lat="53.033921260" lon="-121.529795397">
    <ele>1538.944580</ele>
    <time>2004-01-02T04:33:59Z</time>
    <name>CROSS MEDO</name>
    <sym>Waypoint</sym>
  </rtept>
  <rtept lat="53.033392965" lon="-121.529167605">
    <ele>-0.114380</ele>
    <time>2004-01-02T04:33:59Z</time>
    <name>POWD FK</name>
    <sym>Waypoint</sym>
  </rtept>
  <rtept lat="53.032824642" lon="-121.530174221">
    <ele>-0.114380</ele>
    <time>2004-01-02T04:33:59Z</time>
    <name>BEGIN DICH</name>
    <sym>Waypoint</sym>
  </rtept>
  <rtept lat="53.028773040" lon="-121.538440583">
    <ele>-0.114380</ele>
    <time>2004-01-02T04:33:59Z</time>
    <name>009</name>
    <sym>Waypoint</sym>
  </rtept>
  <rtept lat="53.027591733" lon="-121.540417553">
    <ele>-0.114380</ele>
    <time>2004-01-02T04:33:59Z</time>
    <name>010</name>
    <sym>Waypoint</sym>
  </rtept>
  <rtept lat="53.026201047" lon="-121.539839728">
    <ele>1543.750977</ele>
    <time>2004-01-02T04:33:59Z</time>
    <name>WASHOUT</name>
    <sym>Waypoint</sym>
  </rtept>
  <rtept lat="53.019211010" lon="-121.538364247">
    <ele>1542.309082</ele>
    <time>2004-01-02T04:33:59Z</time>
    <name>RD TRL FK</name>
    <sym>Waypoint</sym>
  </rtept>
  <rtept lat="53.018785435" lon="-121.538409940">
    <ele>1546.635010</ele>
    <time>2004-01-02T04:34:00Z</time>
    <name>COOPER CBN</name>
    <sym>Residence</sym>
  </rtept>
  <rtept lat="53.007424724" lon="-121.548410339">
    <ele>-0.114380</ele>
    <time>2004-01-02T04:34:00Z</time>
    <name>GRNDHOG LK</name>
    <sym>Fishing Area</sym>
  </rtept>
  <rtept lat="53.007005825" lon="-121.546427181">
    <ele>-0.114380</ele>
    <time>2004-01-02T04:34:00Z</time>
    <name>011</name>
    <sym>Waypoint</sym>
  </rtept>
  <rtept lat="53.004323161" lon="-121.543196778">
    <ele>1821.089355</ele>
    <time>2004-01-02T04:34:00Z</time>
    <name>SNOW+LAKE</name>
    <sym>Waypoint</sym>
  </rtept>
  <rtept lat="53.004399139" lon="-121.541474334">
    <ele>-0.114380</ele>
    <time>2004-01-02T04:34:00Z</time>
    <name>012</name>
    <sym>Waypoint</sym>
  </rtept>
  <rtept lat="53.005447017" lon="-121.538733921">
    <ele>-0.114380</ele>
    <time>2004-01-02T04:34:00Z</time>
    <name>013</name>
    <sym>Waypoint</sym>
  </rtept>
  <rtept lat="53.001181090" lon="-121.537120975">
    <ele>1850.890137</ele>
    <time>2004-01-02T04:34:00Z</time>
    <name>LOST TRAIL</name>
    <sym>Waypoint</sym>
  </rtept>
  <rtept lat="53.001054150" lon="-121.534405552">
    <ele>-0.114380</ele>
    <time>2004-01-02T04:34:00Z</time>
    <name>014</name>
    <sym>Waypoint</sym>
  </rtept>
  <rtept lat="53.000182460" lon="-121.533487293">
    <ele>-0.114380</ele>
    <time>2004-01-02T04:34:01Z</time>
    <name>015</name>
    <sym>Waypoint</sym>
  </rtept>
  <rtept lat="53.001027537" lon="-121.530355941">
    <ele>1783.357910</ele>
    <time>2004-01-02T04:34:01Z</time>
    <name>ATV TRACK</name>
    <sym>Waypoint</sym>
  </rtept>
  <rtept lat="53.003105872" lon="-121.522070662">
    <ele>-0.114380</ele>
    <time>2004-01-02T04:34:01Z</time>
    <name>SUMIT SIGN</name>
    <sym>Waypoint</sym>
  </rtept>
  <rtept lat="53.007962368" lon="-121.521778053">
    <ele>1861.945068</ele>
    <time>2004-01-02T04:34:01Z</time>
    <name>PDR SIGN</name>
    <sym>Waypoint</sym>
  </rtept>
  <rtept lat="53.008606732" lon="-121.521759015">
    <ele>-0.114380</ele>
    <time>2004-01-02T04:34:01Z</time>
    <name>016</name>
    <sym>Waypoint</sym>
  </rtept>
  <rtept lat="53.018556319" lon="-121.524806142">
    <ele>-0.114380</ele>
    <time>2004-01-02T04:34:01Z</time>
    <name>017</name>
    <sym>Waypoint</sym>
  </rtept>
  <rtept lat="53.019897269" lon="-121.524846867">
    <ele>-0.114380</ele>
    <time>2004-01-02T04:34:01Z</time>
    <name>018</name>
    <sym>Waypoint</sym>
  </rtept>
  <rtept lat="53.022471852" lon="-121.526859838">
    <ele>1852.572266</ele>
    <time>2004-01-02T04:34:01Z</time>
    <name>TOP RIDGE</name>
    <sym>Waypoint</sym>
  </rtept>
  <rtept lat="53.028438237" lon="-121.529731370">
    <ele>-0.114380</ele>
    <time>2004-01-02T04:34:02Z</time>
    <name>019</name>
    <sym>Waypoint</sym>
  </rtept>
  <rtept lat="53.030465191" lon="-121.531377383">
    <ele>-0.114380</ele>
    <time>2004-01-02T04:34:02Z</time>
    <name>STEEP PART</name>
    <sym>Waypoint</sym>
  </rtept>
  <rtept lat="53.032824642" lon="-121.530174221">
    <ele>-0.114380</ele>
    <time>2004-01-02T04:34:02Z</time>
    <name>BEGIN DICH</name>
    <sym>Waypoint</sym>
  </rtept>
  <rtept lat="53.034037582" lon="-121.529678094">
    <ele>1538.704346</ele>
    <time>2004-01-02T04:34:02Z</time>
    <name>SUMMIT RK</name>
    <sym>Summit</sym>
  </rtept>
  <rtept lat="53.039677507" lon="-121.526656641">
    <ele>1475.978760</ele>
    <time>2004-01-02T04:34:02Z</time>
    <name>SNOWMBL TR</name>
    <sym>Waypoint</sym>
  </rtept>
  <rtept lat="53.046282673" lon="-121.520071754">
    <ele>-0.114380</ele>
    <time>2004-01-02T04:34:02Z</time>
    <name>008</name>
    <sym>Waypoint</sym>
  </rtept>
  <rtept lat="53.051647004" lon="-121.521074091">
    <ele>-0.114380</ele>
    <time>2004-01-02T04:34:02Z</time>
    <name>007</name>
    <sym>Waypoint</sym>
  </rtept>
  <rtept lat="53.052356547" lon="-121.521091570">
    <ele>1361.342285</ele>
    <time>2004-01-02T04:34:02Z</time>
    <name>WALKER GL</name>
    <sym>Waypoint</sym>
  </rtept>
  <rtept lat="53.052947916" lon="-121.521148906">
    <ele>1357.737305</ele>
    <time>2004-01-02T04:34:03Z</time>
    <name>RICHFIELD</name>
    <sym>Waypoint</sym>
  </rtept>
  <rtept lat="53.060757791" lon="-121.522966183">
    <ele>-0.114380</ele>
    <time>2004-01-02T04:34:03Z</time>
    <name>006</name>
    <sym>Waypoint</sym>
  </rtept>
  <rtept lat="53.061766134" lon="-121.524531489">
    <ele>-0.114380</ele>
    <time>2004-01-02T04:34:03Z</time>
    <name>005</name>
    <sym>Waypoint</sym>
  </rtept>
  <rtept lat="53.062595895" lon="-121.523586809">
    <ele>1327.215820</ele>
    <time>2004-01-02T04:34:03Z</time>
    <name>CAVE</name>
    <sym>Waypoint</sym>
  </rtept>
  <rtept lat="53.069228105" lon="-121.514859535">
    <ele>1256.799805</ele>
    <time>2004-01-02T04:34:03Z</time>
    <name>BARKRVILLE</name>
    <sym>Lodging</sym>
  </rtept>
</rte>
</gpx>
